[
    {
        "name": "Shilo Inns Portland Airport",
        "place_id": "ChIJ1QXDFoujlVQRgiN-WQQ-hVs",
        "wheelchair_accessible_entrance": true,
        "latitude": 45.567943,
        "longitude": -122.5419284
    },
    {
        "name": "Salty's on the Columbia River",
        "place_id": "ChIJh9y2IHamlVQRtYXoYQcRp_M",
        "wheelchair_accessible_entrance": true,
        "latitude": 45.6008911,
        "longitude": -122.6246032
    },
    {
        "name": "Beaches Restaurant & Bar",
        "place_id": "ChIJd4zRyZiolVQR2KR6dFigVKc",
        "wheelchair_accessible_entrance": true,
        "latitude": 45.614786,
        "longitude": -122.652077
    },
    {
        "name": "Auntie Anne's",
        "place_id": "ChIJ0c6lfemvlVQRsdAxSayegxk",
        "wheelchair_accessible_entrance": true,
        "latitude": 45.6582139,
        "longitude": -122.5834986
    },
    {
        "name": "McMenamins on the Columbia",
        "place_id": "ChIJv21P5gOmlVQRyRmU14oj-XE",
        "wheelchair_accessible_entrance": true,
        "latitude": 45.6151,
        "longitude": -122.652951
    },
    {
        "name": "Big Al's Vancouver",
        "place_id": "ChIJe6gnAcmklVQRSjFEVmboBDU",
        "wheelchair_accessible_entrance": true,
        "latitude": 45.6078889,
        "longitude": -122.5006948
    },
    {
        "name": "Bollywood Theater",
        "place_id": "ChIJtz1JAiCnlVQRXr_iA5MFB08",
        "wheelchair_accessible_entrance": true,
        "latitude": 45.5592088,
        "longitude": -122.6440307
    },
    {
        "name": "Subway",
        "place_id": "ChIJy3PYjTu7lVQRYo0TwjkKBRE",
        "wheelchair_accessible_entrance": true,
        "latitude": 45.6198257,
        "longitude": -122.4773773
    },
    {
        "name": "Arby's",
        "place_id": "ChIJc-2-3Q2llVQRW5ZU1ZmuFVo",
        "wheelchair_accessible_entrance": true,
        "latitude": 45.6214557,
        "longitude": -122.5628843
    },
    {
        "name": "Subway",
        "place_id": "ChIJqRNMkbevlVQRlaNo9wXk2j8",
        "wheelchair_accessible_entrance": true,
        "latitude": 45.66747729999999,
        "longitude": -122.6025103
    },
    {
        "name": "Island Cafe",
        "place_id": "ChIJjXA77xemlVQRGOJzgFzn2Rg",
        "wheelchair_accessible_entrance": "Unknown",
        "latitude": 45.603536,
        "longitude": -122.6633851
    },
    {
        "name": "Olive Garden Italian Restaurant",
        "place_id": "ChIJK_WTgJOvlVQRl_PaqFobpfE",
        "wheelchair_accessible_entrance": true,
        "latitude": 45.65557700000001,
        "longitude": -122.58922
    },
    {
        "name": "Lakeside Bar and Grill",
        "place_id": "ChIJ42NOWh2klVQRy0wQYvIeiyw",
        "wheelchair_accessible_entrance": true,
        "latitude": 45.56881490000001,
        "longitude": -122.58243
    },
    {
        "name": "Portlander Inn",
        "place_id": "ChIJ07CdmTmmlVQRMqvqwazn5RM",
        "wheelchair_accessible_entrance": true,
        "latitude": 45.5976264,
        "longitude": -122.6699395
    },
    {
        "name": "Brickhouse Bar & Grill",
        "place_id": "ChIJmR4zyLWolVQRFGkgvwfU-0g",
        "wheelchair_accessible_entrance": true,
        "latitude": 45.63225959999999,
        "longitude": -122.6718806
    },
    {
        "name": "Thai Orchid Restaurant",
        "place_id": "ChIJeRAfLbGolVQR_JVkLqQkTg0",
        "wheelchair_accessible_entrance": true,
        "latitude": 45.62922049999999,
        "longitude": -122.6733664
    },
    {
        "name": "IHOP",
        "place_id": "ChIJsYPu3Q2klVQR9LBVuFdlQPU",
        "wheelchair_accessible_entrance": true,
        "latitude": 45.5735442,
        "longitude": -122.5615061
    },
    {
        "name": "McGrath's Fish House",
        "place_id": "ChIJxWYE-BillVQRO1yv3y7AbUA",
        "wheelchair_accessible_entrance": true,
        "latitude": 45.6204246,
        "longitude": -122.5433231
    },
    {
        "name": "McMenamins East Vancouver",
        "place_id": "ChIJjznlhM-6lVQRh4bXaY0w_ig",
        "wheelchair_accessible_entrance": true,
        "latitude": 45.636979,
        "longitude": -122.5068992
    },
    {
        "name": "Burgerville",
        "place_id": "ChIJs7A2wUavlVQRWlGL02s9a3g",
        "wheelchair_accessible_entrance": true,
        "latitude": 45.638694,
        "longitude": -122.647234
    },
    {
        "name": "Domino's Pizza",
        "place_id": "ChIJF5i879iklVQRb0Lf8dLIamU",
        "wheelchair_accessible_entrance": true,
        "latitude": 45.6176091,
        "longitude": -122.5274155
    },
    {
        "name": "Hudson's Bar and Grill",
        "place_id": "ChIJp2j1V5GvlVQR2cHDXRYBghA",
        "wheelchair_accessible_entrance": true,
        "latitude": 45.6535531,
        "longitude": -122.5919047
    },
    {
        "name": "McMenamins Kennedy School",
        "place_id": "ChIJAWbAQeimlVQR4I2f-SqmBkA",
        "wheelchair_accessible_entrance": true,
        "latitude": 45.564491,
        "longitude": -122.630006
    },
    {
        "name": "Makoto Japanese Buffet",
        "place_id": "ChIJvb8WDs6klVQRZzfxghveOM4",
        "wheelchair_accessible_entrance": true,
        "latitude": 45.6131653,
        "longitude": -122.5048906
    },
    {
        "name": "Red Lobster",
        "place_id": "ChIJiRoIo5SvlVQRgwzrky-_bgI",
        "wheelchair_accessible_entrance": true,
        "latitude": 45.656485,
        "longitude": -122.588275
    },
    {
        "name": "Jimmy John's",
        "place_id": "ChIJSdmYgxqllVQRF7jnNvqvo_o",
        "wheelchair_accessible_entrance": true,
        "latitude": 45.61873,
        "longitude": -122.5535687
    },
    {
        "name": "Breakside Brewery - DEKUM",
        "place_id": "ChIJP75JbP6mlVQRHolZgS7ssRA",
        "wheelchair_accessible_entrance": true,
        "latitude": 45.57156469999999,
        "longitude": -122.6568767
    },
    {
        "name": "Firehouse Restaurant",
        "place_id": "ChIJC2jqav6mlVQR43XeB3VVEfE",
        "wheelchair_accessible_entrance": true,
        "latitude": 45.5719872,
        "longitude": -122.6574373
    },
    {
        "name": "Subway",
        "place_id": "ChIJZZUHQuKvlVQRx4oOTwlBjnE",
        "wheelchair_accessible_entrance": true,
        "latitude": 45.6638512,
        "longitude": -122.5610178
    },
    {
        "name": "Subway",
        "place_id": "ChIJD8ix-kOvlVQR7EE17wua1Rk",
        "wheelchair_accessible_entrance": true,
        "latitude": 45.63818529999999,
        "longitude": -122.6415039
    },
    {
        "name": "Papa Murphy's International",
        "place_id": "ChIJy-oaCZSvlVQRGepALLoHxUM",
        "wheelchair_accessible_entrance": true,
        "latitude": 45.6551343,
        "longitude": -122.5920585
    },
    {
        "name": "Golden palace at battle ground",
        "place_id": "ChIJ7ZTslGK0lVQRkY4ev0IfKFA",
        "wheelchair_accessible_entrance": true,
        "latitude": 45.780518,
        "longitude": -122.5418341
    },
    {
        "name": "Tin Shed Garden Cafe",
        "place_id": "ChIJm3XIOh-nlVQRS_D47L1wsB4",
        "wheelchair_accessible_entrance": true,
        "latitude": 45.558964,
        "longitude": -122.6508762
    },
    {
        "name": "Subway",
        "place_id": "ChIJkVnp3hOklVQRe-lTG8y6Cl8",
        "wheelchair_accessible_entrance": true,
        "latitude": 45.5772781,
        "longitude": -122.5663866
    },
    {
        "name": "Subway",
        "place_id": "ChIJn1oVY--tlVQRZetU278XHNM",
        "wheelchair_accessible_entrance": true,
        "latitude": 45.7166895,
        "longitude": -122.6504879
    },
    {
        "name": "Subway",
        "place_id": "ChIJXznTbCGllVQR1bE9IF5PCIs",
        "wheelchair_accessible_entrance": true,
        "latitude": 45.6196692,
        "longitude": -122.5330769
    },
    {
        "name": "Shari's Cafe and Pies",
        "place_id": "ChIJ1QO7voqjlVQRqvWd7XCVMKQ",
        "wheelchair_accessible_entrance": true,
        "latitude": 45.5685183,
        "longitude": -122.5445635
    },
    {
        "name": "Famous Dave's Bar-B-Que",
        "place_id": "ChIJcVGIwQ2klVQRDK8nYVbjInQ",
        "wheelchair_accessible_entrance": true,
        "latitude": 45.574024,
        "longitude": -122.5604537
    },
    {
        "name": "Subway",
        "place_id": "ChIJaSnVD1ullVQRPJKkcAjft-Q",
        "wheelchair_accessible_entrance": true,
        "latitude": 45.6421081,
        "longitude": -122.5557774
    },
    {
        "name": "Who Song & Larry's",
        "place_id": "ChIJlfPzxQOmlVQRCL5-mq3Kdrw",
        "wheelchair_accessible_entrance": true,
        "latitude": 45.62082969999999,
        "longitude": -122.6711803
    },
    {
        "name": "Starbucks",
        "place_id": "ChIJFRsIwLColVQRcIU3MOhFklE",
        "wheelchair_accessible_entrance": true,
        "latitude": 45.627443,
        "longitude": -122.6742268
    },
    {
        "name": "Little Caesars Pizza",
        "place_id": "ChIJo3_nGYe0lVQRu84aZVmp3iQ",
        "wheelchair_accessible_entrance": true,
        "latitude": 45.7812846,
        "longitude": -122.5514471
    },
    {
        "name": "Subway",
        "place_id": "ChIJb64bVYiulVQRyEngyywxFDg",
        "wheelchair_accessible_entrance": true,
        "latitude": 45.6870374,
        "longitude": -122.6666358
    },
    {
        "name": "Subway",
        "place_id": "ChIJWTI8Ec6klVQRrFtOVAqVoYQ",
        "wheelchair_accessible_entrance": true,
        "latitude": 45.6128438,
        "longitude": -122.5045904
    },
    {
        "name": "Burgerville",
        "place_id": "ChIJJQlZoxCllVQRvQqUrw9VqEk",
        "wheelchair_accessible_entrance": true,
        "latitude": 45.6210667,
        "longitude": -122.5516643
    },
    {
        "name": "Papa Johns Pizza",
        "place_id": "ChIJXznTbCGllVQRXK8HrZNYeQE",
        "wheelchair_accessible_entrance": true,
        "latitude": 45.6195424,
        "longitude": -122.5330359
    },
    {
        "name": "Subway",
        "place_id": "ChIJe1K29oG0lVQRWiK5X7Cdx0s",
        "wheelchair_accessible_entrance": true,
        "latitude": 45.7813336,
        "longitude": -122.5618143
    },
    {
        "name": "Subway",
        "place_id": "ChIJkxo-Wi6ulVQRiHDpriZH46Y",
        "wheelchair_accessible_entrance": true,
        "latitude": 45.68536649999999,
        "longitude": -122.6019029
    },
    {
        "name": "Krispy Kreme",
        "place_id": "ChIJlUrPBi6ulVQRBdhqnWrH2R8",
        "wheelchair_accessible_entrance": true,
        "latitude": 45.6837264,
        "longitude": -122.6014304
    },
    {
        "name": "The Old Spaghetti Factory",
        "place_id": "ChIJk74h2tOklVQRm1-xJ-1g1DE",
        "wheelchair_accessible_entrance": true,
        "latitude": 45.6162243,
        "longitude": -122.50794
    },
    {
        "name": "Red Robin Gourmet Burgers and Brews",
        "place_id": "ChIJqQJ-a5OvlVQRo1C0xuciLJw",
        "wheelchair_accessible_entrance": true,
        "latitude": 45.6552728,
        "longitude": -122.5876008
    },
    {
        "name": "Talay Thai Cuisine",
        "place_id": "ChIJBX-Sn0SwlVQRlvQ_AMEuREo",
        "wheelchair_accessible_entrance": true,
        "latitude": 45.6849527,
        "longitude": -122.5332991
    },
    {
        "name": "Pizza Hut",
        "place_id": "ChIJYfnbEYOvlVQRaRCZhlMKhcU",
        "wheelchair_accessible_entrance": true,
        "latitude": 45.6450429,
        "longitude": -122.6028192
    },
    {
        "name": "Burgerville",
        "place_id": "ChIJt4PaAOKvlVQRfLNYsf5HZLk",
        "wheelchair_accessible_entrance": true,
        "latitude": 45.664873,
        "longitude": -122.5608083
    },
    {
        "name": "Menchie's Frozen Yogurt",
        "place_id": "ChIJXaDPozm7lVQRedTZScXb2m8",
        "wheelchair_accessible_entrance": true,
        "latitude": 45.6165012,
        "longitude": -122.476576
    },
    {
        "name": "Gustav's",
        "place_id": "ChIJfzXkw8iklVQR4x-Qp9Wg_L8",
        "wheelchair_accessible_entrance": true,
        "latitude": 45.6082694,
        "longitude": -122.5034694
    },
    {
        "name": "Bye and Bye",
        "place_id": "ChIJMz74ExmnlVQRTrtu61B8QFk",
        "wheelchair_accessible_entrance": true,
        "latitude": 45.559308,
        "longitude": -122.6552126
    },
    {
        "name": "Red Robin Gourmet Burgers and Brews",
        "place_id": "ChIJW1eGhtGklVQRuUhnAhXI2W0",
        "wheelchair_accessible_entrance": true,
        "latitude": 45.61549060000001,
        "longitude": -122.5071462
    },
    {
        "name": "Jack in the Box",
        "place_id": "ChIJ1ZuDcI6jlVQRyFIYpawrI0E",
        "wheelchair_accessible_entrance": true,
        "latitude": 45.5649409,
        "longitude": -122.5327492
    },
    {
        "name": "Shanahan's Pub & Grill",
        "place_id": "ChIJXanzesqolVQRe2P9ru7bjxU",
        "wheelchair_accessible_entrance": true,
        "latitude": 45.63460300000001,
        "longitude": -122.6730621
    }
]