[
    {
        "name": "Brickhouse Bar & Grill",
        "place_id": "ChIJmR4zyLWolVQRFGkgvwfU-0g",
        "address": "109 West 15th Street, Vancouver",
        "latitude": 45.63225959999999,
        "longitude": -122.6718806
    },
    {
        "name": "Thai Orchid Restaurant",
        "place_id": "ChIJeRAfLbGolVQR_JVkLqQkTg0",
        "address": "213 West 11th Street, Vancouver",
        "latitude": 45.62922049999999,
        "longitude": -122.6733664
    },
    {
        "name": "Starbucks",
        "place_id": "ChIJFRsIwLColVQRcIU3MOhFklE",
        "address": "Heritage Place East Building, 304 West 8th Street, Vancouver",
        "latitude": 45.627443,
        "longitude": -122.6742268
    },
    {
        "name": "Shanahan's Pub & Grill",
        "place_id": "ChIJXanzesqolVQRe2P9ru7bjxU",
        "address": "209 West McLoughlin Boulevard, Vancouver",
        "latitude": 45.63460300000001,
        "longitude": -122.6730621
    },
    {
        "name": "Main Event Sports Grill",
        "place_id": "ChIJ07_p4rColVQRkKXD1Z-vKto",
        "address": "800 Main Street, Vancouver",
        "latitude": 45.62737810000001,
        "longitude": -122.6718879
    },
    {
        "name": "La Bottega Cafe Deli Wine Shop",
        "place_id": "ChIJRyldlcqolVQRacwj_zdCJkU",
        "address": "1905 Main Street, Vancouver",
        "latitude": 45.63591899999999,
        "longitude": -122.671237
    },
    {
        "name": "Domino's Pizza",
        "place_id": "ChIJH7PMvs2olVQRK40T_PxcHFs",
        "address": "1006 West Fourth Plain Boulevard, Vancouver",
        "latitude": 45.6406054,
        "longitude": -122.6814156
    },
    {
        "name": "Little Italy's Trattoria To-Go",
        "place_id": "ChIJm9_bILGolVQR-ACF38g8C_g",
        "address": "901 Washington Street, Vancouver",
        "latitude": 45.6281359,
        "longitude": -122.6725584
    },
    {
        "name": "Grays Restaurant & Bar",
        "place_id": "ChIJzwR4kLqolVQRKQ6DuKoup7E",
        "address": "301 West 6th Street, Vancouver",
        "latitude": 45.625508,
        "longitude": -122.6747148
    },
    {
        "name": "Dulin's Village Cafe",
        "place_id": "ChIJI_jKgcqolVQRMumhTkxUdDw",
        "address": "1929 Main Street, Vancouver",
        "latitude": 45.636655,
        "longitude": -122.671289
    },
    {
        "name": "Who Song & Larry's",
        "place_id": "ChIJlfPzxQOmlVQRCL5-mq3Kdrw",
        "address": "111 Southeast Columbia Way, Vancouver",
        "latitude": 45.62082969999999,
        "longitude": -122.6711803
    },
    {
        "name": "Black Angus Steakhouse",
        "place_id": "ChIJHbDjfrOolVQR3g2xZcAG9ow",
        "address": "415 East 13th Street, Vancouver",
        "latitude": 45.63076849999999,
        "longitude": -122.666677
    },
    {
        "name": "Brewed Cafe & Pub",
        "place_id": "ChIJQ6VxRLColVQRmeaOfHKHhC0",
        "address": "603 Main Street, Vancouver",
        "latitude": 45.6259018,
        "longitude": -122.6714958
    },
    {
        "name": "Doomsday Brewing Safe House",
        "place_id": "ChIJU1wrwcqolVQRbK7VGm2s4Ks",
        "address": "1919 Main Street, Vancouver",
        "latitude": 45.6362891,
        "longitude": -122.671295
    },
    {
        "name": "Uptown Barrel Room",
        "place_id": "ChIJa3LuCtmplVQRmLpoTpAXEHE",
        "address": "2011 Main Street, Vancouver",
        "latitude": 45.6371659,
        "longitude": -122.6712369
    },
    {
        "name": "Thirsty Sasquatch & Hungry Sasquatch",
        "place_id": "ChIJo39wLMuolVQRqYJVg0bG4xc",
        "address": "2110 Main Street, Vancouver",
        "latitude": 45.6376484,
        "longitude": -122.6716955
    },
    {
        "name": "Tap Union Freehouse",
        "place_id": "ChIJgfrGhbaolVQRAvW-xZdAzAs",
        "address": "1300 Washington Street #200, Vancouver",
        "latitude": 45.63116970000001,
        "longitude": -122.6731067
    },
    {
        "name": "E-San food cart Vancouver",
        "place_id": "ChIJVXPixzSvlVQRdhu5VdUGbd4",
        "address": "2315 Main Street, Vancouver",
        "latitude": 45.6386615,
        "longitude": -122.6711923
    },
    {
        "name": "Weiner Wagon",
        "place_id": "ChIJ_bfFpbaolVQR_5Dku6-jvKw",
        "address": "1199 Main Street, Vancouver",
        "latitude": 45.6301888,
        "longitude": -122.6714723
    },
    {
        "name": "Elements Restaurant",
        "place_id": "ChIJv2T1PLGolVQRE-uPK3G6eZw",
        "address": "907 Main Street, Vancouver",
        "latitude": 45.6282912,
        "longitude": -122.6712893
    },
    {
        "name": "Pacific House",
        "place_id": "ChIJ0zSKGbGolVQR7e9IaR--LoE",
        "address": "819 Main Street, Vancouver",
        "latitude": 45.62784499999999,
        "longitude": -122.671396
    },
    {
        "name": "Donnell's Bar",
        "place_id": "ChIJwZevG7GolVQR_i11LhO_aN8",
        "address": "813 Main Street, Vancouver",
        "latitude": 45.627733,
        "longitude": -122.671302
    },
    {
        "name": "Subway",
        "place_id": "ChIJj5k1u7ColVQRwTtGn-dDQU8",
        "address": "406 West 8th Street, Vancouver",
        "latitude": 45.6274627,
        "longitude": -122.6751609
    },
    {
        "name": "Nom Nom Restaurant and Grill",
        "place_id": "ChIJQ8KXmbGolVQR4XuZOffotgo",
        "address": "801 C Street, Vancouver",
        "latitude": 45.6273714,
        "longitude": -122.6692483
    },
    {
        "name": "Q Night Club & Lounge",
        "place_id": "ChIJBwQv-LColVQRFLGKH4gyTKk",
        "address": "704 Main Street, Vancouver",
        "latitude": 45.62679079999999,
        "longitude": -122.6718067
    },
    {
        "name": "The Grocery Cocktail & Social",
        "place_id": "ChIJh9OMXrColVQRxeDV40ZI1G4",
        "address": "115 West 7th Street, Vancouver",
        "latitude": 45.62631200000001,
        "longitude": -122.672534
    },
    {
        "name": "Nonavo Pizza",
        "place_id": "ChIJJVPtaLColVQR4LfoWtz-0xc",
        "address": "110 West 6th Street, Vancouver",
        "latitude": 45.6258055,
        "longitude": -122.6723416
    },
    {
        "name": "Provecho",
        "place_id": "ChIJ1UaansqolVQRoKn5ww1cvNI",
        "address": "1801 Main Street, Vancouver",
        "latitude": 45.6350872,
        "longitude": -122.6709121
    },
    {
        "name": "Dairy Queen Grill & Chill",
        "place_id": "ChIJQfuCmzOvlVQRicKiB3Pd1Ew",
        "address": "2707 Main Street, Vancouver",
        "latitude": 45.6412241,
        "longitude": -122.6705208
    },
    {
        "name": "Loowit Brewing Company",
        "place_id": "ChIJbe2QnbqolVQR-emClF4C9Qc",
        "address": "507 Columbia Street, Vancouver",
        "latitude": 45.62521359999999,
        "longitude": -122.6736428
    },
    {
        "name": "Mon Ami",
        "place_id": "ChIJt2DdlMqolVQR9_8bSgsyYCY",
        "address": "1906 Main Street, Vancouver",
        "latitude": 45.6359,
        "longitude": -122.6717694
    },
    {
        "name": "Peking Garden Restaurant",
        "place_id": "ChIJjbxB1cqolVQRU0AqAVHYYMQ",
        "address": "2101 Main Street, Vancouver",
        "latitude": 45.63746699999999,
        "longitude": -122.6712589
    },
    {
        "name": "Tigers Garden",
        "place_id": "ChIJ3REFvrColVQRx2L_KNee_3A",
        "address": "312 West 8th Street, Vancouver",
        "latitude": 45.627381,
        "longitude": -122.674577
    },
    {
        "name": "Paul's Restaurant",
        "place_id": "ChIJLR4LYbWolVQRmlMC5BnxX0k",
        "address": "1800 Broadway Street, Vancouver",
        "latitude": 45.6351448,
        "longitude": -122.6706621
    },
    {
        "name": "Joe Brown's Cafe",
        "place_id": "ChIJF77cG7GolVQRpy7asl6WjE0",
        "address": "817 Main Street, Vancouver",
        "latitude": 45.6277778,
        "longitude": -122.6713889
    },
    {
        "name": "Niche Wine Bar",
        "place_id": "ChIJu_8AS7GolVQRD8DMAkviNhY",
        "address": "River View Tower, 900 Washington Street #130, Vancouver",
        "latitude": 45.62813999999999,
        "longitude": -122.6729332
    },
    {
        "name": "Muchas Gracias Mexican Food",
        "place_id": "ChIJW2m1z7WolVQRuJVsSUYhIWE",
        "address": "1411 Washington Street, Vancouver",
        "latitude": 45.6323544,
        "longitude": -122.6723882
    },
    {
        "name": "Bleu Door Bakery",
        "place_id": "ChIJxTdtisqolVQR1r4XbBEgbsc",
        "address": "2411 Main Street, Vancouver",
        "latitude": 45.63904,
        "longitude": -122.671226
    },
    {
        "name": "Chipotle Mexican Grill",
        "place_id": "ChIJyR5XRqOplVQR--uTay5etOY",
        "address": "1600 Washington Street STE. 101, Vancouver",
        "latitude": 45.6334757,
        "longitude": -122.6728198
    },
    {
        "name": "Wahi Hana Tiki Bar",
        "place_id": "ChIJY232Lt6plVQR_x_Ix0UYdP8",
        "address": "1819 Main Street, Vancouver",
        "latitude": 45.6354206,
        "longitude": -122.6711344
    },
    {
        "name": "Ingrid's GoodStreetFood & Paleo Grill",
        "place_id": "ChIJP7xpHhGplVQRUjf6-zu05qA",
        "address": "1701 Broadway Street, Vancouver",
        "latitude": 45.63426279999999,
        "longitude": -122.6702126
    },
    {
        "name": "THAI 4 U",
        "place_id": "ChIJdcy22CqplVQRNsWS3FHAzdc",
        "address": "1919 Main Street, Vancouver",
        "latitude": 45.6362887,
        "longitude": -122.6712726
    },
    {
        "name": "OMW Uptown Market",
        "place_id": "ChIJycFnR_uplVQRrkPDdO13v-8",
        "address": "207 East McLoughlin Boulevard, Vancouver",
        "latitude": 45.6347193,
        "longitude": -122.669935
    },
    {
        "name": "Scratch Breakfast",
        "place_id": "ChIJe4WEmsuplVQRnczwRtF7jIg",
        "address": "1300 Washington Street #200, Vancouver",
        "latitude": 45.6312068,
        "longitude": -122.6730208
    },
    {
        "name": "Birriera PDX Vancouver",
        "place_id": "ChIJcxu6XsavlVQRDkrgUeoAnXU",
        "address": "2201 Main Street, Vancouver",
        "latitude": 45.63793869999999,
        "longitude": -122.6710662
    },
    {
        "name": "The Piehole Pizzeria",
        "place_id": "ChIJvzWfk8qvlVQRrGuLRXVKvIM",
        "address": "2219 Main Street, Vancouver",
        "latitude": 45.6383143,
        "longitude": -122.6712054
    },
    {
        "name": "Trap Door Brewing",
        "place_id": "ChIJ-5j-xjSvlVQRrip-zkKATeE",
        "address": "2315 Main Street, Vancouver",
        "latitude": 45.6386528,
        "longitude": -122.6712706
    },
    {
        "name": "Taco City, The Taco Truck",
        "place_id": "ChIJBQBtxzSvlVQRejljBG5Bk_Q",
        "address": "2315 Main Street, Vancouver",
        "latitude": 45.63865909999999,
        "longitude": -122.6711566
    },
    {
        "name": "Amaro\u2019s Table Downtown",
        "place_id": "ChIJVVWln7aolVQRZM12cR4jhq8",
        "address": "1220 Main Street #100, Vancouver",
        "latitude": 45.6304307,
        "longitude": -122.6716956
    },
    {
        "name": "Heathen Brewing Feral Public House",
        "place_id": "ChIJMw2eubaolVQR1TzZPl35rHY",
        "address": "1109 Washington Street, Vancouver",
        "latitude": 45.6299853,
        "longitude": -122.6723522
    },
    {
        "name": "Starbucks",
        "place_id": "ChIJA_AsS1OplVQRX4NnagdUXMA",
        "address": "409 East Mill Plain Boulevard, Vancouver",
        "latitude": 45.6316038,
        "longitude": -122.6677342
    },
    {
        "name": "Syrup Trap",
        "place_id": "ChIJ3QlAsbaolVQRErwb_90lK4Q",
        "address": "1104 Main Street Suite 111, Vancouver",
        "latitude": 45.62971049999999,
        "longitude": -122.671911
    },
    {
        "name": "Garage Bar & Grille",
        "place_id": "ChIJ_y5J282olVQRIz_kBgD-r7w",
        "address": "1101 West Fourth Plain Boulevard, Vancouver",
        "latitude": 45.6400338,
        "longitude": -122.6824251
    },
    {
        "name": "Sushi Mo",
        "place_id": "ChIJiYmNzraolVQREfMsVHe8MrI",
        "address": "1012 Washington Street #140, Vancouver",
        "latitude": 45.62932130000001,
        "longitude": -122.6730553
    },
    {
        "name": "Brothers Cascadia Brewing Evergreen Pub",
        "place_id": "ChIJX_hufweplVQRQJnzxmGpgAY",
        "address": "108 West Evergreen Boulevard, Vancouver",
        "latitude": 45.62910679999999,
        "longitude": -122.6722467
    },
    {
        "name": "DEDIKO",
        "place_id": "ChIJYWK0GEuplVQRe3Ej3Z0_u7E",
        "address": "210 West Evergreen Boulevard #700, Vancouver",
        "latitude": 45.6290355,
        "longitude": -122.6736119
    },
    {
        "name": "Bessolo Pizzeria",
        "place_id": "ChIJhWWKpq6plVQRVOw52HnU-H8",
        "address": "1000 Main Street, Vancouver",
        "latitude": 45.62891020000001,
        "longitude": -122.6719018
    },
    {
        "name": "Short & Sweet",
        "place_id": "ChIJ1xciIgOplVQRuyjED-KkyPM",
        "address": "1001 Main Street #3150, Vancouver",
        "latitude": 45.6289449,
        "longitude": -122.6713999
    },
    {
        "name": "Rollin Beets Sushi",
        "place_id": "ChIJeb6VBcWvlVQRDc0106vU3kI",
        "address": "106 East Evergreen Boulevard, Vancouver",
        "latitude": 45.6289238,
        "longitude": -122.6711446
    },
    {
        "name": "Coral Club",
        "place_id": "ChIJR4aDSLGolVQREcHTutJ2a_I",
        "address": "106 East Evergreen Boulevard, Vancouver",
        "latitude": 45.6289238,
        "longitude": -122.6711446
    },
    {
        "name": "Burgerville",
        "place_id": "ChIJs7A2wUavlVQRWlGL02s9a3g",
        "address": "2200 East 4th Plain Boulevard, Vancouver",
        "latitude": 45.638694,
        "longitude": -122.647234
    },
    {
        "name": "Rally Pizza",
        "place_id": "ChIJjfLPE5yllVQRmYiNSisnkXY",
        "address": "2905 Saint Johns Boulevard, Vancouver",
        "latitude": 45.6426031,
        "longitude": -122.6464229
    },
    {
        "name": "Victor 23 Brewing",
        "place_id": "ChIJi2rng0CvlVQRGJFl50Q6nuk",
        "address": "2905 Saint Johns Boulevard #3718, Vancouver",
        "latitude": 45.64253899999999,
        "longitude": -122.6463184
    },
    {
        "name": "McDonald's",
        "place_id": "ChIJ6bzj6EavlVQRMMA7qwdwmXk",
        "address": "2110 East 4th Plain Boulevard, Vancouver",
        "latitude": 45.638892,
        "longitude": -122.6485
    },
    {
        "name": "Willful Wine at The Grant House",
        "place_id": "ChIJ3TA_PnSplVQRwt1Bvw4Tu5E",
        "address": "1101 Officers Row, Vancouver",
        "latitude": 45.62821709999999,
        "longitude": -122.6601194
    },
    {
        "name": "Falahi Bro's Middle Eastern Cuisine",
        "place_id": "ChIJgZMduLWplVQRdrFjkgAJf8E",
        "address": "609 West 11th Street, Vancouver",
        "latitude": 45.6293839,
        "longitude": -122.677699
    },
    {
        "name": "El Burrito Mojado",
        "place_id": "ChIJ06jM0ueplVQREN_08ntFkBA",
        "address": "808 Harney Street, Vancouver",
        "latitude": 45.6278991,
        "longitude": -122.6796188
    },
    {
        "name": "Quick Shop Minit Mart - Fruit Valley",
        "place_id": "ChIJ-9vRaNColVQRF1seIthb1lw",
        "address": "1910 West Fourth Plain Boulevard, Vancouver",
        "latitude": 45.6407338,
        "longitude": -122.6916861
    },
    {
        "name": "Ichi Teriyaki 27",
        "place_id": "ChIJAVo0BbqolVQR_uC72qud20I",
        "address": "585 West 8th Street, Vancouver",
        "latitude": 45.62707499999999,
        "longitude": -122.6771533
    },
    {
        "name": "Foode Cafe & Catering",
        "place_id": "ChIJ5f1j97SolVQRd4l-oD46vxE",
        "address": "900 Washington Street #120, Vancouver",
        "latitude": 45.6283793,
        "longitude": -122.6731579
    },
    {
        "name": "Vancouver Taco Week",
        "place_id": "ChIJJWhRbLqolVQRP4V-HKYpWmw",
        "address": "610 Esther Street, Vancouver",
        "latitude": 45.6263487,
        "longitude": -122.6764646
    },
    {
        "name": "Papa Murphy's | Take 'N' Bake Pizza",
        "place_id": "ChIJ5WvwgSWvlVQR9eNFZqNACQg",
        "address": "3801 Main Street, Vancouver",
        "latitude": 45.6492794,
        "longitude": -122.6674626
    },
    {
        "name": "Firehouse Axes",
        "place_id": "ChIJtSMcsGGvlVQRNYL-76Q7gwY",
        "address": "3701 Main Street, Vancouver",
        "latitude": 45.6482045,
        "longitude": -122.6677584
    },
    {
        "name": "ampm",
        "place_id": "ChIJM2DMnCWvlVQRXiNRfzuG_mk",
        "address": "3817 Main Street, Vancouver",
        "latitude": 45.649456,
        "longitude": -122.6669711
    },
    {
        "name": "Taqueria Don Jose",
        "place_id": "ChIJR1i2IpGvlVQRxihg8pGsVG8",
        "address": "514 East 39th Street, Vancouver",
        "latitude": 45.6501639,
        "longitude": -122.6667523
    },
    {
        "name": "Frontier Public House",
        "place_id": "ChIJAVp8Yt-ulVQRHtYtKp1blKU",
        "address": "4909 Northeast Hazel Dell Avenue, Vancouver",
        "latitude": 45.6574617,
        "longitude": -122.66638
    },
    {
        "name": "China Cook",
        "place_id": "ChIJ-wyFpUCvlVQRdh2aHUjvkaE",
        "address": "2200 Saint Johns Boulevard, Vancouver",
        "latitude": 45.6418674,
        "longitude": -122.6480435
    },
    {
        "name": "Taco Bell",
        "place_id": "ChIJw7lRCyCmlVQRDVGdooemkOU",
        "address": "12237 North Jantzen Drive, Portland",
        "latitude": 45.6116361,
        "longitude": -122.6768859
    },
    {
        "name": "Boomers",
        "place_id": "ChIJJ0_hCSCmlVQRylkSBbqz0tA",
        "address": "1335 North Hayden Island Drive, Portland",
        "latitude": 45.613569,
        "longitude": -122.680436
    },
    {
        "name": "Jantzen Beach Supercenter",
        "place_id": "ChIJEbiuQZ6olVQRWzOilHEtqsE",
        "address": "1600 North Tomahawk Island Drive, Portland",
        "latitude": 45.6128686,
        "longitude": -122.6848465
    },
    {
        "name": "The Smokin' Oak Barbeque Restaurant, Bar & Catering",
        "place_id": "ChIJX6g5nrqolVQRaEWhY4eT5fs",
        "address": "501 Columbia Street, Vancouver",
        "latitude": 45.6250736,
        "longitude": -122.6734862
    },
    {
        "name": "Little Conejo",
        "place_id": "ChIJBQbaZ7ColVQRM_MtTFCh8yE",
        "address": "114 West 6th Street, Vancouver",
        "latitude": 45.62582250000001,
        "longitude": -122.672496
    },
    {
        "name": "Six Shooter",
        "place_id": "ChIJdcN04eCplVQRWDRMBDss2M8",
        "address": "611 Main Street, Vancouver",
        "latitude": 45.6261452,
        "longitude": -122.6713983
    },
    {
        "name": "Locust Cider Vancouver",
        "place_id": "ChIJfSNrdD6plVQRmhg_6vg4ak8",
        "address": "700 Washington Street Suite 103, Vancouver",
        "latitude": 45.6265792,
        "longitude": -122.6729888
    },
    {
        "name": "Georgie's Garage & Grill",
        "place_id": "ChIJHTjoJOaplVQRosUEMz6zV1o",
        "address": "606 Broadway Street, Vancouver",
        "latitude": 45.6260732,
        "longitude": -122.6707895
    },
    {
        "name": "A Little Vice",
        "place_id": "ChIJXxmEvLOplVQRV1tNfdXB6BY",
        "address": "701 Main Street, Vancouver",
        "latitude": 45.6265906,
        "longitude": -122.6714582
    },
    {
        "name": "Penalties Sports Pub",
        "place_id": "ChIJz2VSdtWplVQR8euPvww9Ets",
        "address": "115 East 7th Street, Vancouver",
        "latitude": 45.6262836,
        "longitude": -122.6708024
    },
    {
        "name": "Small Eats",
        "place_id": "ChIJiXTgb-aplVQR32y1vFzG3tk",
        "address": "605 Esther Street, Vancouver",
        "latitude": 45.62598819999999,
        "longitude": -122.6757442
    },
    {
        "name": "Kali kantina",
        "place_id": "ChIJmwn9BeSplVQRrIXqlsnYJWM",
        "address": "605 Esther Street, Vancouver",
        "latitude": 45.62612759999999,
        "longitude": -122.675784
    },
    {
        "name": "Razo's Tacos",
        "place_id": "ChIJQcl-4pKtlVQR_JKQxkDzfwA",
        "address": "605 Esther Street, Vancouver",
        "latitude": 45.62612759999999,
        "longitude": -122.675784
    },
    {
        "name": "Mighty Bowl - Downtown",
        "place_id": "ChIJfWqb47ColVQRcU3IpATbqCU",
        "address": "108 West 8th Street, Vancouver",
        "latitude": 45.6273745,
        "longitude": -122.6723687
    },
    {
        "name": "The Sedgwick",
        "place_id": "ChIJxXYvgGCplVQRmIFa3ZrZP8M",
        "address": "801 Washington Street, Vancouver",
        "latitude": 45.6274646,
        "longitude": -122.6724866
    },
    {
        "name": "Ranch Pizza Vancouver",
        "place_id": "ChIJ-9hi6aKplVQRQdimcWyQ-6I",
        "address": "801 Columbia Street, Vancouver",
        "latitude": 45.6276009,
        "longitude": -122.6734054
    },
    {
        "name": "La Frontera Restaurant",
        "place_id": "ChIJKQQCcwCplVQReVZ2d9gqy-E",
        "address": "809 Washington Street, Vancouver",
        "latitude": 45.6276734,
        "longitude": -122.6725556
    },
    {
        "name": "Shinsen Sushi & Lounge",
        "place_id": "ChIJV25rFgCplVQR7bw0z3zN77g",
        "address": "510 West Columbia Way, Vancouver",
        "latitude": 45.6238771,
        "longitude": -122.6777082
    },
    {
        "name": "13 Coins Vancouver",
        "place_id": "ChIJ59EYLjiplVQRPhu-a1Xm_aY",
        "address": "511 West Columbia Way, Vancouver",
        "latitude": 45.6235053,
        "longitude": -122.6777171
    },
    {
        "name": "El Gaucho Vancouver",
        "place_id": "ChIJBWRtIvqplVQRjWXItGcgelk",
        "address": "510 Waterfront Way, Vancouver",
        "latitude": 45.6233403,
        "longitude": -122.6777393
    },
    {
        "name": "Amore's",
        "place_id": "ChIJ0dWqgTiplVQRit2AXvrFNKI",
        "address": "901 Washington Street, Vancouver",
        "latitude": 45.6281634,
        "longitude": -122.6724433
    },
    {
        "name": "7 Restaurant",
        "place_id": "ChIJNVfvYKaplVQR0fgb9qOrNE0",
        "address": "905 Main Street, Vancouver",
        "latitude": 45.628254,
        "longitude": -122.671277
    },
    {
        "name": "McMenamins on the Columbia",
        "place_id": "ChIJv21P5gOmlVQRyRmU14oj-XE",
        "address": "1801 Southeast Columbia River Drive, Vancouver",
        "latitude": 45.6151,
        "longitude": -122.652951
    },
    {
        "name": "Beaches Restaurant & Bar",
        "place_id": "ChIJd4zRyZiolVQR2KR6dFigVKc",
        "address": "1919 Southeast Columbia River Drive, Vancouver",
        "latitude": 45.614786,
        "longitude": -122.652077
    },
    {
        "name": "Red Robin Gourmet Burgers and Brews",
        "place_id": "ChIJoUkCK_6llVQRdK19e3vaH5w",
        "address": "2410 Columbia House Boulevard, Vancouver",
        "latitude": 45.6190507,
        "longitude": -122.6465788
    },
    {
        "name": "Panda Express",
        "place_id": "ChIJv7ASLP6llVQR7_c0MkBUYdc",
        "address": "2510 Columbia House Boulevard, Vancouver",
        "latitude": 45.6190532,
        "longitude": -122.6451384
    },
    {
        "name": "Panera Bread",
        "place_id": "ChIJg-U7HtqglVQR0x5B7gssJS4",
        "address": "1400 North Tomahawk Island Drive, Portland",
        "latitude": 45.611781,
        "longitude": -122.683337
    },
    {
        "name": "Jimmy John's",
        "place_id": "ChIJs16XyAWnlVQRnIof1U4XFwM",
        "address": "12154 North Pavillion Avenue, Portland",
        "latitude": 45.611671,
        "longitude": -122.684137
    },
    {
        "name": "Jersey Mike's Subs",
        "place_id": "ChIJ5U2XF56olVQROWOBN5e3TEI",
        "address": "12243 North Center Avenue, Portland",
        "latitude": 45.61110499999999,
        "longitude": -122.680233
    },
    {
        "name": "Maryhill Winery Vancouver Tasting Room & Bistro",
        "place_id": "ChIJFR94ThGplVQRZE6xM4K2vME",
        "address": "801 Waterfront Way #105, Vancouver",
        "latitude": 45.62419409999999,
        "longitude": -122.6814762
    },
    {
        "name": "Willamette Valley Vineyards - Vancouver Waterfront",
        "place_id": "ChIJj71sjj6plVQRwtyh7a_EklI",
        "address": "801 Waterfront Way Suite 205, Vancouver",
        "latitude": 45.624257,
        "longitude": -122.6812514
    },
    {
        "name": "Waterfront Taphouse",
        "place_id": "ChIJgWyMGTCplVQROcGYRdycTpI",
        "address": "801 Waterfront Way floor 2, Vancouver",
        "latitude": 45.624257,
        "longitude": -122.6812514
    },
    {
        "name": "Twigs Bistro",
        "place_id": "ChIJucm5DWaplVQRpx31ZyFHcGM",
        "address": "801 Waterfront Way Suite 103, Vancouver",
        "latitude": 45.6240478,
        "longitude": -122.6810417
    },
    {
        "name": "What a Catch",
        "place_id": "ChIJhW1k8a6plVQR1w-a_DIPUY0",
        "address": "777 Waterfront Way #101, Vancouver",
        "latitude": 45.6239228,
        "longitude": -122.6805562
    },
    {
        "name": "Pop-Local",
        "place_id": "ChIJV83ZyoGplVQR6N5wNjKh7OM",
        "address": "111 Grant Street, Vancouver",
        "latitude": 45.6243191,
        "longitude": -122.6803702
    },
    {
        "name": "WildFin American Grill - Vancouver",
        "place_id": "ChIJiY0uutCplVQRzU3lRXi7UIo",
        "address": "777 Waterfront Way #101, Vancouver",
        "latitude": 45.6238833,
        "longitude": -122.680525
    },
    {
        "name": "Grassa",
        "place_id": "ChIJdV1IXPaplVQRGOKER2diEQQ",
        "address": "780 Waterfront Way, Vancouver",
        "latitude": 45.62417019999999,
        "longitude": -122.6803676
    },
    {
        "name": "DOSALAS latin kitchen + tequila bar",
        "place_id": "ChIJiaYdAl6plVQRED5zzECGJBo",
        "address": "777 Waterfront Way Suite 201, Vancouver",
        "latitude": 45.6238983,
        "longitude": -122.6804619
    },
    {
        "name": "Kafiex Roasters - Gastro Cafe",
        "place_id": "ChIJxeZsXkCplVQRL53C-wP3_n4",
        "address": "100 Parkway Place, Vancouver",
        "latitude": 45.6239431,
        "longitude": -122.6796027
    },
    {
        "name": "Stack 571 Burger & Whiskey Bar - Vancouver",
        "place_id": "ChIJLbBOZXSplVQR_876uV-1WbI",
        "address": "670 Waterfront Way, Vancouver",
        "latitude": 45.62395050000001,
        "longitude": -122.6792777
    },
    {
        "name": "Brian Carter Cellars Tasting Room & Wine Bar",
        "place_id": "ChIJdWDWz2CplVQRaFpRLeDEwO8",
        "address": "660 Waterfront Way, Vancouver",
        "latitude": 45.6238915,
        "longitude": -122.6790774
    },
    {
        "name": "Valo -- Massalto",
        "place_id": "ChIJ547vf8OplVQRduEbGogxb6s",
        "address": "671 West Columbia Way, Vancouver",
        "latitude": 45.62418,
        "longitude": -122.6788253
    },
    {
        "name": "Ruse Brewing Crust Collective",
        "place_id": "ChIJRW-Fv1mplVQRnMi58CifnhQ",
        "address": "650 Waterfront Way, Vancouver",
        "latitude": 45.6238059,
        "longitude": -122.6787185
    }
]